,name,longitude,latitude
0,611 TREE OF LIFE KINDERGARTEN,114.1681,22.2995
1,ABC PATHWAYS INTERNATIONAL KINDERGARTEN,114.1769,22.3315
2,ABC PATHWAYS INT'L KG (WHAMPOA GARDEN),114.1907,22.3049
3,ABERDEEN BAPTIST CHURCH PAK KWONG KG,114.1822,22.337
4,ABIDING KINDERGARTEN,114.165,22.3132
5,ACADEMY KINDERGARTEN (TIN SHUI WAI),114.0019,22.4685
6,AEFCHK - EFCC - PO NGA NURSERY SCHOOL,114.1982,22.2892
7,AEFCHK EFCC TIN YAN NURSERY SCHOOL,114.0057,22.4589
8,AEFCHK-EFCC-AGC ABUNDANT GRACE NUR SCH,114.2648,22.3187
9,AEFCHK-EFCC-VERBENA NURSERY SCH,114.1982,22.2892
10,AGNES ENGLISH KINDERGARTEN,114.1782,22.3322
11,AGNES KINDERGARTEN (GRANDEUR TERRACE),114.0019,22.4685
12,AGNES WISE KINDERGARTEN,114.151,22.2798
13,ALICE LAN&VERA SHEN EDU F DELIA PEI KG,114.1557,22.2809
14,ALICE LAN&VERA SHEN EDU F GORDON PEI KG,114.1557,22.2809
15,ALISON'S LETTERLAND INTERNATIONAL KG,114.1982,22.2892
16,ALLIANCE KINDERGARTEN,114.2397,22.2784
17,ALLWAY KINDERGARTEN,114.1042,22.3795
18,AMERICAN INTERNATIONAL SCHOOL,114.1783,22.3314
19,AMOY COLLEGE,114.1844,22.3211
20,ANANI KINDERGARTEN,114.165,22.3132
21,ANCHORS INTERNATIONAL NURSERY,114.0302,22.2054
22,ANCHORS KINDERGARTEN,114.1654,22.32
23,ANCHORS KINDERGARTEN (FANLING),114.1654,22.32
24,ANFIELD INTERNATIONAL KINDERGARTEN,114.1785,22.3373
25,ANNUNCIATION CATHOLIC KINDERGARTEN,114.0013,22.4497
26,ANTONIA INTERNATIONAL KINDERGARTEN,114.1769,22.3315
27,A-ONE KINDERGARTEN,114.165,22.3132
28,ARISTLE INTERNATIONAL KINDERGARTEN,114.1769,22.3315
29,ASBURY METHODIST KINDERGARTEN,114.1271,22.3459
30,ASHVILLE INTERNATIONAL KG(LANTAU ISLAND),113.9324,22.2286
31,ASSEMBLY OF GOD MCLEOD MEMORIAL KG,114.1596,22.4502
32,ASSEMBLY OF GOD UNION CHURCH KG,114.1845,22.3771
33,AUSTRALIAN INTERNATIONAL SCH HK,114.1779,22.3355
34,AVENDALE INTL KG (HARMONY GARDEN),114.2494,22.2655
35,AVENDALE INT'L KG (THE PARKSIDE),114.1982,22.2892
36,BAMBINO ENGLISH PLAYSCHOOL,114.2296,22.2756
37,BAPT CONVENTION OF HK RCHK NORTHWEST KG,114.1717,22.2812
38,BAPT OK SOCIAL SERV PUI YAN PRE-PRI SCH,114.1701,22.3308
39,BAPTIST CHURCH SHINING GRACE KG,114.1822,22.337
40,BAPTIST CONVENTION OF HK LEE ON NURSERY,114.1717,22.2812
41,BAPTIST CONVENTION OF HK PO TIN KG,114.1822,22.337
42,BAPTIST CONVENTION OF HK YIU HING KG,114.1822,22.337
43,BAPTIST OASIS ENGLISH KINDERGARTEN,113.9665,22.3841
44,BAPTIST PUI LI SCHOOL,114.2204,22.2828
45,BENEVOLENT LIGHT KINDERGARTEN,114.1756,22.3384
46,BEVERLY ANGLO-CHINESE KINDERGARTEN,114.2617,22.3103
47,BGCA HK CHEERLAND KG (KOWLOON BAY),114.1764,22.319
48,BGCAHK CHEERLAND KG (TSEUNG KWAN O),114.2496,22.3274
49,BGCAHK CHEERLAND KG (WONG TAI SIN),114.1925,22.343
50,BGCAHK CHEERLAND KINDERGARTEN (WANCHAI),114.165,22.3132
51,BILOK ANGLO-CHINESE KINDERGARTEN,114.2251,22.4036
52,BILOK CREATIVE KINDERGARTEN,114.2374,22.2778
53,BLESSING KINDERGARTEN (BELVEDERE),114.165,22.3132
54,BLOOMING BUDS PRESCHOOL,114.1669,22.3218
55,BO BO NURSERY SCHOOL,114.1982,22.2892
56,BOWIE ANGLO-CHINESE KINDERGARTEN,114.2251,22.4036
57,BOX HILL (HK) INTERNATIONAL KINDERGARTEN,114.2223,22.2384
58,BOX HILL (HK) INT'L K/G-FO TAN,114.2223,22.2384
59,BOX HILL (HK) INTL KG - TKO,114.1982,22.2892
60,BOX HILL(HK) INTL KG - WONDERLAND VILLAS,114.1359,22.3519
61,BRAEMAR HILL NURSERY SCHOOL,114.1982,22.2892
62,BRIGHTLAND INTERNATIONAL KINDERGARTEN,114.1769,22.3315
63,BRITISH COUNCIL INTERNATIONAL PRE-SCHOOL,114.1643,22.2762
64,BUDDHIST CHEUNG MUI KWAI KINDERGARTEN,114.1372,22.3651
65,BUDDHIST CHI KWONG KINDERGARTEN,114.0247,22.4468
66,BUDDHIST CHI WAI DAY NURSERY,114.03,22.2096
67,BUDDHIST CHUN YUE KG (TUNG CHUNG),114.2138,22.2808
68,BUDDHIST FOO HONG KINDERGARTEN,114.1537,22.464
69,BUDDHIST KAM LAI KINDERGARTEN,113.9846,22.4202
70,BUDDHIST MR. & MRS. CHAN CHART MAN KG,113.9718,22.4086
71,BUDDHIST SUM TUNG FOOK KINDERGARTEN,114.2219,22.3172
72,BUDDHIST TCFS YEUNG TAM YUEN FONG KG,114.1289,22.3588
73,BUDDHIST TSANG KOR SING ANGLO-CHINESE KG,114.1924,22.2722
74,BUSY BEES KINDERGARTEN,114.1766,22.3282
75,C & MA FU SHAN NURSERY SCH,114.2088,22.2907
76,C & MA LEI TUNG NURSERY SCH,114.2088,22.2907
77,C & MA PLOVER COVE NURSERY SCH,114.2088,22.2907
78,C & MA SHATIN NURSERY SCH,114.2088,22.2907
79,C & MA SOUTH HORIZONS NUR SCH,114.2088,22.2907
80,C & MA TIN CHUNG NURSERY SCH,114.2088,22.2907
81,C&MA CH UNION TSEUNG KWAN O ALLIANCE KG,114.2088,22.2907
82,C&MA CHURCH TAI WO KINDERGARTEN,114.2088,22.2907
83,C&MA CHURCH VERBENA KINDERGARTEN,114.2088,22.2907
84,C&MA FAIRVIEW PARK KINDERGARTEN,114.2088,22.2907
85,C&MA JOYFUL PEACE KINDERGARTEN,114.2088,22.2907
86,C&MA SCHOLARS' ANGLO-CHINESE KG,114.2088,22.2907
87,C&MA TAI O KINDERGARTEN,114.2088,22.2907
88,CANADIAN INTERNATIONAL SCHOOL,114.1672,22.2422
89,CANNAN ENG & CHINESE KG (SHA TAU KOK),114.1978,22.2888
90,CANNAN KG (LAGUNA CITY),114.2275,22.306
91,CANNAN KINDERGARTEN (CHARMING GARDEN),114.165,22.3132
92,CANNAN KINDERGARTEN (HONG KONG),114.1933,22.2867
93,CANNAN KINDERGARTEN (KOWLOON TONG),114.1786,22.3383
94,CANNAN KINDERGARTEN (PRIME VIEW GARDEN),113.9796,22.403
95,CANNAN KINDERGARTEN (RIVIERA GARDEN),114.1131,22.3617
96,CANNAN KINDERGARTEN (SIU SAI WAN),114.25,22.263
97,CANNAN KINDERGARTEN (TSUEN WAN),114.0575,22.4882
98,CANNAN KINDERGARTEN (WATERLOO ROAD),114.1782,22.3273
99,CANNAN KINDERGARTEN (WHAMPOA GARDEN),114.1917,22.3057
100,CARBO ANGLO-CHINESE KG (FANLING),114.1982,22.2892
101,CARITAS KAI YAU NURSERY SCHOOL,114.03,22.2096
102,CARITAS LING YUET SIN KINDERGARTEN,114.1397,22.285
103,CARITAS LIONS CLUB HK(PACIFIC) NUR SCH,114.0013,22.4471
104,CARITAS NURSERY SCHOOL - KENNEDY TOWN,114.128,22.2836
105,CARITAS NURSERY SCHOOL - LEI YUE MUN,114.2391,22.2972
106,CARITAS NURSERY SCHOOL - SHATIN,114.1908,22.3932
107,CARITAS NURSERY SCHOOL - TA KWU LING,114.1532,22.5332
108,CARITAS NURSERY SCHOOL - TSUI LAM,114.2476,22.3229
109,CARITAS NURSERY SCHOOL - YAU TONG,114.03,22.2096
110,CARITAS ST FRANCIS KINDERGARTEN,114.1695,22.2761
111,CARITAS ZONTA CLUB OF HK NURSERY SCHOOL,114.1982,22.2892
112,CARMEL SCHOOL,114.1796,22.3143
113,CASTAR KINDERGARTEN,114.1059,22.3548
114,CASTAR KINDERGARTEN (LEI MUK SHUE),114.134,22.3793
115,CATILINE ANGLO-CHINESE KINDERGARTEN,114.2251,22.4036
116,CATILINE KINDERGARTEN,114.0562,22.4834
117,CATILINE KINDERGARTEN (FANLING),114.0562,22.4834
118,CATILINE KINDERGARTEN (FU SHAN),114.0562,22.4834
119,CATILINE KINDERGARTEN (WHAMPOA),114.0562,22.4834
120,CAUSEWAY BAY VICTORIA INTERNATIONAL KG,114.1271,22.2685
121,CAUSEWAY BAY VICTORIA KINDERGARTEN,114.1271,22.2685
122,CAUSEWAY BAY VICTORIA NURSERY,114.2166,22.2836
123,CCC CHAI WAN CHURCH DN,114.2332,22.2614
124,CCC CHEUNG CHAU CHURCH KAM KONG KG,114.0283,22.2036
125,CCC CHUEN YUEN KINDERGARTEN,114.1261,22.3681
126,CCC FUK YAU KINDERGARTEN,114.1266,22.5085
127,CCC FUK YAU NO. II KINDERGARTEN,113.9672,22.386
128,CCC HEEP WOH KINDERGARTEN,114.1721,22.3239
129,CCC KEI CHUN KINDERGARTEN,114.2259,22.2812
130,CCC KEI FAAT KINDERGARTEN,114.2339,22.2996
131,CCC KEI WA KINDERGARTEN,114.0595,22.3505
132,CCC MONGKOK CHURCH JEANNETTE KG,114.1693,22.3216
133,CCC SHUM OI CHURCH KINDERGARTEN,114.168,22.332
134,CCC TUEN MUN CHURCH KG,113.9772,22.3997
135,CCC TUEN MUN CHURCH NO. 2 KINDERGARTEN,113.977,22.389
136,CCC WANCHAI CHURCH KINDERGARTEN,114.169,22.3114
137,"CCC, SHATIN CHURCH POK HONG KINDERGARTEN",114.1933,22.3751
138,CCCHK CHI TO CH KEI POK KG (TKO),114.1905,22.3135
139,CECES ORGANIZED AETNA PRESCHOOL,114.1859,22.2786
140,CFSC CHEERLAND KG,114.1982,22.2892
141,CFSC YEOH CHOY WAI HAAN MEMORIAL KG,114.2027,22.2918
142,CHAN EN MEI LUTHERAN DAY NURSERY,114.0302,22.2054
143,CHAN MUNG YAN LUTHERAN KINDERGARTEN,113.9827,22.4633
144,CHE LOK KINDERGARTEN,114.1537,22.464
145,CHERISH ENGLISH SCHOOL & KINDERGARTEN,114.181,22.372
146,CHEUNG CHAU SACRED HEART KINDERGARTEN,114.0301,22.2097
147,CHEUNG CHING LUTHERAN DAY NURSERY,114.03,22.2096
148,CHEUNG SHA WAN KFWA LAM TAM YIN WAH KG,114.1641,22.3295
149,CHI CHR WK'S FELLOWSHIP LTD CHOI PO KG,114.1634,22.4529
150,CHI CHR WK'S FELLOWSP LTD KING SHING KG,114.1319,22.3453
151,CHILD PSY DEVELOPMENT ASSN (CHI FU) KG,114.1716,22.3224
152,CHINESE INTERNATIONAL SCHOOL,114.1981,22.2833
153,CHINESE Y.M.C.A. SHEUNG SHUI KG,114.1283,22.3646
154,CHINESE YMCA KINDERGARTEN,114.1713,22.3137
155,CHINESE YMCA KWAI CHUNG KINDERGARTEN,114.1283,22.3646
156,CHING CHUNG HING TUNG KINDERGARTEN,113.9397,22.2788
157,CHING CHUNG WU KING KINDERGARTEN,113.9648,22.3749
158,CHIU HA KINDERGARTEN,114.0219,22.4455
159,CHIU YANG KINDERGARTEN,114.0046,22.4513
160,CHOI HA ESTATE KIT SAM KINDERGARTEN,114.2169,22.3263
161,CHOICE ENGLISH SCH & KG (TSING YI BR),114.1667,22.3309
162,CHR ALLIANCE CHEN LEE WING TSING MEM KG,114.1756,22.3719
163,CHR ALLIANCE SMP CHEN LEE WING TSING KG,114.1756,22.3719
164,CHR LITTLE ANGEL KG (KAM FUNG COURT),114.2262,22.4245
165,CHR THE FAITH HOPE L CH YAT TUNG KG,N,N
166,CHR THE FAITH HOPE LOVE CH WAH MING KG,114.2421,22.2666
167,CHRIST CHURCH KINDERGARTEN,114.1789,22.3295
168,CHRISTIAN ADRIANNE KG (BAYVIEW),114.1982,22.2892
169,CHRISTIAN ADRIANNE KINDERGARTEN,114.1782,22.3273
170,CHRISTIAN EVANGELICAL CENTRE LOK FU KG,114.1889,22.3455
171,CHRISTIAN FAMILY SERVICE CTR TAK TIN KG,114.2289,22.3118
172,CHRISTIAN LITTLE ANGEL KG RICHLAND GDN,114.2059,22.3295
173,CHRISTIAN LITTLE TREE KINDERGARTEN,114.2397,22.2784
174,CHRISTIAN YOUTH CENTRE KG (YAU TONG),114.1782,22.3273
175,CHRISTIAN YOUTH CENTRE KINDERGARTEN,114.1782,22.3273
176,CHRISTIANALLIANCE LOUEY CHOY KWAN LOK KG,114.2513,22.3226
177,CHUEN YUEN CHURCH KINDERGARTEN,114.0247,22.4468
178,CNEC CHRISTIAN KINDERGARTEN,114.1393,22.3638
179,CPC GREEN PASTURE KG,114,22.4634
180,CREATIVE DAY NURSERY (SCENEWAY),114.25,22.263
181,CREATIVE KINDERGARTEN,114.2374,22.2778
182,CREATIVE KINDERGARTEN (AEGEAN COAST),114.2374,22.2778
183,CREATIVE KINDERGARTEN (CASTELLO),114.2374,22.2778
184,CREATIVE KINDERGARTEN (HENG FA CHUEN),114.2374,22.2778
185,CREATIVE KINDERGARTEN (MA WAN),114.0612,22.3532
186,CREATIVE KINDERGARTEN (SCENEWAY GARDEN),114.2374,22.2778
187,CREATIVE KINDERGARTEN (SHAM WAN TOWERS),114.0612,22.3532
188,CREATIVE KINDERGARTEN (TSING YI),114.2374,22.2778
189,CREATIVE KINDERGARTEN (TUEN MUN BRANCH),113.9705,22.3992
190,CREATIVE PRIMARY SCHOOL'S KG,114.1982,22.2892
191,CREATIVITY (PARK VALE) KINDERGARTEN,114.021,22.363
192,CREATIVITY (TAI LAM) KINDERGARTEN,114.021,22.363
193,CUHK FAA CHAN CHUN HA KINDERGARTEN,114.2268,22.4231
194,CUHK FAA SHUN LUNG YAN CHAK KINDERGARTEN,114.2268,22.4231
195,CUHKFAA THOMAS CHEUNG KINDERGARTEN,114.1725,22.3608
196,CWBC PRESCH EDU LUI MING CHOI KG(SIU S W,114.1241,22.2814
197,CWBC PRE-SCH EDUCATON LUI MING CHOI KG,114.1017,22.3624
198,DAVID (EXODUS) KINDERGARTEN,114.165,22.3132
199,DAWNING VIEWS ELEMENTI ENGLISH KG,114.1447,22.4874
200,DEBORAH AC KG (WHAMPOA GARDEN),114.1907,22.3049
201,DEBORAH ENGLISH KG (TSEUNG KWAN O),114.2617,22.3103
202,DEBORAH INTERNATIONAL PRE-SCHOOL,114.2617,22.3103
203,DEBORAH INT'L PRE-SCHOOL (BAUHINIA GARD),114.2617,22.3103
204,DEBORAH INT'L PRE-SCHOOL (SITE 7),114.2617,22.3103
205,DEBORAH INT'L PRE-SCHOOL (TSEUNG KWAN O),114.2617,22.3103
206,DELIA ENGLISH PRIMARY SCHOOL & KG,114.1056,22.3607
207,DIAMOND HILL BAPT CH BRIGHT BLOSSOMS KG,114.1762,22.3251
208,DIAMOND HILL LING LIANG KINDERGARTEN,114.1835,22.2772
209,DISCOVERY BAY INTERNATIONAL SCHOOL,114.0123,22.3014
210,DISCOVERY MIND KINDERGARTEN,114.1766,22.3282
211,DISCOVERY MIND KINDERGARTEN (BRANCH),114.1766,22.3282
212,DISCOVERY MIND KINDERGARTEN (TUNG CHUNG),114.1766,22.3282
213,DISCOVERY MONTESSORI ACADEMY,114.1118,22.3762
214,DISCOVERY MONTESSORI SCHOOL,114.0123,22.3014
215,DISCOVERY MONTESSORI SCHOOL (CENTRAL),114.0123,22.3014
216,DOMINIC SAVIO KG (OLYMPIC BR),114.1875,22.2737
217,DOMINIC SAVIO KINDERGARTEN,114.2396,22.2756
218,ECFB CREATIVITY KINDERGARTEN,114.021,22.363
219,EDUHK ECLC (KG SECTION),N,N
220,ELCHK AMAZING GRACE NURSERY SCHOOL,114.1982,22.2892
221,ELCHK CHUNG ON NURSERY SCHOOL,114.0302,22.2054
222,ELCHK GRACE NURSERY SCHOOL,114.1982,22.2892
223,ELCHK HING WAH NURSERY SCHOOL,114.1982,22.2892
224,ELCHK KIN MING NURSERY SCHOOL,114.1982,22.2892
225,ELCHK LING KUNG NURSERY SCHOOL,114.0057,22.4589
226,ELCHK LING ON NURSERY SCHOOL,114.2166,22.2836
227,ELCHK SHATIN LUTHERAN KINDERGARTEN,114.1855,22.3727
228,ELCHK TSEUNG KWAN O KINDERGARTEN,114.2617,22.3103
229,ELITE KIDS ANGLO-CHINESE KINDERGARTEN,114.2382,22.425
230,EMMANUEL CHURCH SHATIN NURSERY SCHOOL,114.03,22.2096
231,ENDEAVOURERS CHAN CHENG KIT WAN KG,114.1982,22.2892
232,EPOCH ANGLO-CHINESE KINDERGARTEN,114.2251,22.4036
233,EPWORTH VILLAGE METHODIST CHURCH KG,114.2332,22.2683
234,ESF ABACUS INTERNATIONAL KG,114.2751,22.3161
235,ESF INTERNATIONAL KG (HILLSIDE),114.2751,22.3161
236,ESF INTERNATIONAL KG (TUNG CHUNG),114.2751,22.3161
237,ESF INTERNATIONAL KG (WU KAI SHA),114.2751,22.3161
238,ESF INTERNATIONAL KINDERGARTEN(TSING YI),114.2751,22.3161
239,ETONHOUSE INTERNATIONAL PRE-SCHOOL (TP),114.1917,22.2612
240,EVANGELICAL LU CH OF HK CHEUNG WAH KG,114.1982,22.2892
241,EVANGELICAL LU CH OF HK NAM CHEONG KG,114.1675,22.3389
242,EXCEL LONDON HOUSE INTERNATIONAL KG,114.1714,22.3034
243,EYE LEVEL MATH & ENG WORKSHOP EDU CTRTKO,113.979,22.3908
244,FAIRCHILD KINDERGARTEN,114.165,22.3132
245,FAITH LUTHERAN CHURCH KINDERGARTEN,114.1826,22.3402
246,FANLING AOG CHURCH GRACE LIGHT KG,114.2002,22.3451
247,FANLING ASSEMBLIES OF GOD KINDERGARTEN,114.1406,22.4955
248,FANLING BAPTIST CHURCH LUI MING CHOI KG,114.1546,22.2421
249,FIRST AOG CHURCH TIN CHAK NURSERY,113.9975,22.4668
250,FIRST ASSEMBLY OF GOD PRI SCH & KG,114.1737,22.3206
251,FIVE DIS B W ASSN CHEUNG CHUK SHAN KG,114.0331,22.2077
252,FIVE DISTRICTS BUSINESS WELFARE ASSN KG,114.1547,22.3409
253,FM CHURCH BRADBURY CHUN LEI NURSERY SCH,114.1813,22.3703
254,FU HENG BAPTIST LUI KWOK PAT FONG KG,114.2279,22.3189
255,FU TAI LUTHERAN DAY NURSERY,114.2396,22.2756
256,FU YIU KINDERGARTEN,114.1171,22.3662
257,FUK LOY CHUEN KAM CHUEN KINDERGARTEN,114.1124,22.3738
258,FUNFUL CHILDREN CORNER KINDERGARTEN,114.1774,22.3312
259,FUNFUL KINDERGARTEN,114.165,22.3132
260,FUNG KAI KINDERGARTEN,114.1268,22.5101
261,GALILEE INTERNATIONAL KINDERGARTEN,114.1769,22.3315
262,GARDEN ESTATE BAPTIST NURSERY SCHOOL,114.1825,22.3357
263,GARDEN HOUSE KINDERGARTEN,114.165,22.3132
264,GERMAN SWISS INTERNATIONAL SCHOOL,114.1617,22.2662
265,GIGAMIND KINDERGARTEN,114.165,22.3132
266,GLORIA CREATIVE KG (SHEUNG SHUI),114.1734,22.2739
267,GLORIA CREATIVE KINDERGARTEN,114.2374,22.2778
268,GOOD HEALTH AC KG (MA ON SHAN),114.2382,22.425
269,GOOD HEALTH AC KG (TSING YI SOUTH),114.0937,22.3368
270,GOOD HEALTH ANGLO-CHINESE KG (TSING YI),114.2382,22.425
271,GOOD HEALTH KINDERGARTEN (MA ON SHAN),114.2382,22.425
272,GOOD HOPE PRI SCH CUM KG,114.2193,22.3344
273,GOOD TIME PLAY SCH (SHATIN PLAZA),114.1889,22.3833
274,GOOD TIME PLAY SCHOOL (FANLING CTR),114.147,22.4987
275,GRACE BAPTIST KINDERGARTEN,114.1824,22.3354
276,GRACE GARDEN INTERNATIONAL KINDERGARTEN,114.1769,22.3315
277,GRACE GARDEN INT'L KG (LEI KING WAN),114.2233,22.2839
278,GRACE METHODIST CHURCH KINDERGARTEN,114.1724,22.3086
279,GRACEFIELD EAST KOWLOON CHRISTIAN KG,114.2223,22.3305
280,GREENFIELD ENG (INT) KG (THE LONG BEACH),114.0325,22.4415
281,GREENFIELD ENG (INT'L) KG (LOHAS PARK),114.2731,22.2928
282,GREENFIELD ENG (INT'L) KG (MONT VERT),114.1092,22.3532
283,GREENFIELD ENG (INTL) KG (TSEUNG KWAN O),114.2497,22.3048
284,GREENFIELD ENG (INTL) KG (TUNG CHUNG),113.9404,22.2874
285,GREENFIELD ENGLISH KG (MA ON SHAN),114.1056,22.3607
286,GREENFIELD KG (SHEUNG SHUI CENTRE),114.1299,22.501
287,GREENVILLE ANGLO-CHINESE KINDERGARTEN,114.2251,22.4036
288,GREENVILLE KIDS' WORLD KINDERGARTEN,114.1804,22.365
289,GUIDEPOSTS KG (TUEN MUN BRANCH),113.977,22.389
290,GUIDEPOSTS KG 2ND BR (KIN SANG ESTATE),113.9694,22.4071
291,GUIDEPOSTS KG 3RD BR (TIN SHUI ESTATE),113.9979,22.4547
292,GUIDEPOSTS KINDERGARTEN,113.977,22.389
293,HAMILTON HILL INTERNATIONAL KINDERGARTEN,114.1769,22.3315
294,HAMILTON HILL INTL KG (ISLAND EAST),114.1982,22.2892
295,HARROW INTERNATIONAL SCHOOL HONG KONG,113.9906,22.3767
296,HARTS PRESCHOOL,114.1746,22.2979
297,HEEP HONG SOCIETY HEALTHY KIDS NUR SCH,114.2059,22.2911
298,HEEP YUNN SCHOOL PRIVATE KINDERGARTEN,114.1852,22.3217
299,HENG FA CHUEN LUTHERAN DAY NURSERY,114.2396,22.2756
300,HENG ON BAPTIST NURSERY SCHOOL,114.2224,22.4053
301,HHCKLA BUDDHIST LAM WONG MING WAI KG,114.2604,22.32
302,HHCKLA BUDDHIST WAI KWONG KA FUK KG,113.9652,22.3777
303,HHCKLA BUDDHIST WAI KWONG KINDERGARTEN,113.9652,22.3777
304,HIGHGATE HOUSE SCHOOL - THE PEAK,114.1548,22.2651
305,HK & KKWA TING SUN HUI CHIU KG,114.1258,22.2813
306,HK & KKWA TING YUK CHEE KINDERGARTEN,114.1258,22.2813
307,HK & KKWA WAN TSUI KINDERGARTEN,114.1258,22.2813
308,HK & MACAU LUTHERAN CHURCH TSUI EN KG,114.1258,22.2813
309,HK AND MACAU LUTHERAN CH SHEK ON MEM KG,114.2674,22.3177
310,HK CHINESE CHURCH OF CHRIST THE LIGHT KG,114.1827,22.3187
311,HK HARBOUR MISSION CHURCH YAN OI KG,114.1571,22.2439
312,HK LUTHERAN CHURCH KWUN TONG KG,114.2214,22.3146
313,HK MAN SANG KG (WESTERN DISTRICT),114.009,22.4385
314,HK SHENG KUNG HUI KEI OI NURSERY SCHOOL,114.1675,22.3389
315,HK SKH THE CHURCH OF THE EPIPHANY KG,114.1528,22.2812
316,HK TAOIST ASSOCIATION FEI NGAN KG,114.2399,22.3
317,HK&KKFWA SUN FONG CHUNG KG,114.1258,22.2813
318,HK&KKWA SUN FONG CHUNG KG (SUI WO COURT),114.1258,22.2813
319,HKCS CENTRAL NURSERY SCHOOL,114.03,22.2096
320,HKCS KWUN TONG NURSERY SCHOOL,114.2165,22.3157
321,HKCS LEI CHENG UK NURSERY SCHOOL,114.1982,22.2892
322,HKCS SHEK KIP MEI NURSERY SCHOOL,114.1668,22.3318
323,HKCS TAI HANG TUNG NURSERY SCHOOL,114.2396,22.2756
324,HKCS TIMES NURSERY SCHOOL,114.1982,22.2892
325,HKCS TIN HENG NURSERY SCHOOL,114.2396,22.2756
326,HKEC ELITE KINDERGARTEN,114.1876,22.3258
327,HKFYG CHING LOK KINDERGARTEN,114.1254,22.2141
328,HKFYG CHING LOK KINDERGARTEN (YAUMATEI),114.165,22.3132
329,HKFYG KK CHENG KINDERGARTEN,114.1582,22.3403
330,HKLLC SAU TAK KG(CAMPUS 2),114.2353,22.3154
331,HKSKH HA SUI WAN NURSERY SCHOOL,114.25,22.263
332,HKSKH LADY MACLEHOSE CTR (SHEK YAM) KG,114.1363,22.3654
333,HKSKH LADY MACLEHOSE CTR KG,114.1363,22.3654
334,HKSKH ST NICHOLAS' NURSERY SCHOOL,114.177,22.3322
335,HKSKH ST SIMON'S LEUNG KING NURSERY SCH,113.9744,22.3973
336,HKSKH ST SIMON'S SAI KUNG NURSERY SCH,114.2707,22.3809
337,HKSKH ST SIMON'S TAI HING NURSERY SCH,113.9744,22.3973
338,HKSKH TUNG CHUNG NURSERY SCHOOL,114.1884,22.3244
339,HKSPC AW HOE NURSERY SCHOOL,114.1982,22.2892
340,HKSPC BOC NURSERY SCHOOL,114.03,22.2096
341,HKSPC BUTTERFLY ESTATE NURSERY SCHOOL,113.9619,22.3745
342,HKSPC CHEUNG SHA WAN NURSERY SCHOOL,114.0302,22.2054
343,HKSPC HK BANK FOUNDATION NURSERY SCHOOL,114.1982,22.2892
344,HKSPC LAM WOO NURSERY SCHOOL,114.1982,22.2892
345,HKSPC MA TAU CHUNG NURSERY SCHOOL,114.1884,22.3244
346,HKSPC MR & MRS THOMAS TAM NURSERY SCHOOL,114.1664,22.3397
347,HKSPC OCEAN SHORES NURSERY SCHOOL,114.2547,22.3015
348,HKSPC OPERATION SANTA CLAUS FANLING N S,114.0567,22.4859
349,HKSPC PARK'N SHOP STAFF C FUND NURS SCH,114.2194,22.2139
350,HKSPC PORTLAND STREET NURSERY SCHOOL,114.1696,22.3153
351,HKSPC SHAM TSENG NURSERY SCHOOL,114.0602,22.3684
352,HKSPC SIA WHAMPOA NURSERY SCHOOL,114.25,22.263
353,HKSPC SZE WU SHU MIN NURSERY SCHOOL,114.1982,22.2892
354,HKSPC THE JOCKEY CLUB HOK SAM NUR SCH,114.1327,22.5027
355,HKSPC THOMAS TAM NURSERY SCHOOL,114.1982,22.2892
356,HKTA YUEN YUEN KG (FU SHIN ESTATE),114.1761,22.4522
357,HKTA YUEN YUEN KG (TUNG TAU ESTATE),114.1928,22.3363
358,HKTA YUEN YUEN KINDERGARTEN,114.0777,22.4253
359,HKYWCA ATHENA KINDERGARTEN,114.2346,22.4261
360,HKYWCA CHEUNG CHING NURSERY SCHOOL,114.1982,22.2892
361,HKYWCA CHIU OI WAH NURSERY SCHOOL,114.1982,22.2892
362,HKYWCA CHOI WAN NURSERY SCHOOL,114.0302,22.2054
363,HKYWCA FAITH HOPE NURSERY SCHOOL,114.1982,22.2892
364,HKYWCA LUNG HANG NURSERY SCHOOL,114.1982,22.2892
365,HKYWCA ON TING NURSERY SCHOOL,114.1982,22.2892
366,HKYWCA SHIU PONG NURSERY SCHOOL,114.1982,22.2892
367,HKYWCA TAI HON FAN NURSERY SCHOOL,114.0302,22.2054
368,HKYWCA TSUEN WAN NURSERY SCHOOL,114.1982,22.2892
369,HO CHING KG (SPONSORED BY SIK SIK YUEN),114.1354,22.3806
370,HO LAP KG (SPONSORED BY SIK SIK YUEN),113.9992,22.4338
371,HO OI DAY NURSERY (SIK SIK YUEN),113.9746,22.3893
372,HO SHUI KG SPONSORED BY SIK SIK YUEN,113.9992,22.4338
373,HO TAK KG (SPONSORED BY SIK SIK YUEN),113.9992,22.4338
374,HO YAN KG (SPONSORED BY SIK SIK YUEN),113.9992,22.4338
375,"HOH FUK TONG KG (TM CH, CCC, HK CCL)",113.9672,22.386
376,HOLFORD ANGLO-CHINESE KINDERGARTEN,114.2251,22.4036
377,HOLY TRINITY CENTRE KINDERGARTEN,114.1891,22.3258
378,HOMANTIN BAPTIST CHURCH KINDERGARTEN,114.1372,22.3651
379,HOMANTIN YANG MEMORIAL METHODIST PRE-SCH,114.1724,22.314
380,HONG KONG (ASCOT) PRESCHOOL,114.2744,22.3145
381,HONG KONG 5-S KINDERGARTEN,114.0777,22.4253
382,HONG KONG ACADEMY,114.2744,22.3855
383,HONG KONG BAPTIST UNIVERSITY - KG,114.1822,22.337
384,HONG KONG BETHEL CHURCH GIDEON KG,114.0497,22.4762
385,HONG KONG CHRISTIAN SERVICE PARIO KG,114.18,22.3003
386,HONG KONG KINDERGARTEN ASSN PRE-SCHOOL,114.0777,22.4253
387,HONG KONG LING LIANG CHURCH KG,114.1835,22.2772
388,HONG KONG LING LIANG CHURCH SAU TAK KG,113.9458,22.2899
389,HONG KONG LING LIANG CHURCH TSUEN WAN KG,113.9447,22.2905
390,HONG KONG MAN SANG KG (NORTH POINT),114.1969,22.2907
391,HONG KONG NOBEL PRESCHOOL,113.9828,22.4053
392,HONG KONG PRESCHOOL (PICTORIAL),114.2744,22.3145
393,HONG KONG SOKA KINDERGARTEN,114.1801,22.3308
394,HONG KONG STUDENT AID SOCIETY PO TAT NUR,114.0054,22.4652
395,HONG KONG TRUE LIGHT KG (CAINE ROAD),114.152,22.2815
396,HONG YING ANGLO-CHINESE KINDERGARTEN,114.2382,22.425
397,HOP YAT CHURCH CHAN PAK WANG MEMORIAL KG,114.1971,22.2868
398,HOP YAT CHURCH SHIN KA CHUEN MEM KG,114.2338,22.4243
399,IMMACULATE HEART OF MARY KINDERGARTEN,114.1828,22.3758
400,INTERNATIONAL CHRISTIAN SCH - KG,114.2099,22.3869
401,INTERNATIONAL MONTESSORI SCH - AN IMEF,114.2099,22.3869
402,INTL COLL HK HONG LOK YUEN (KG SECT),114.1535,22.4639
403,INVENTIVE FUNFUL KINDERGARTEN,114.165,22.3132
404,ISLAMIC ABU BAKAR CHUI MEMORIAL KG,114.1968,22.3494
405,ISLAMIC POK OI KINDERGARTEN,113.972,22.3886
406,ISLAND CHILDREN'S MONTESSORI K/G (LKW),114.2024,22.291
407,ISLAND CHILDREN'S MONTESSORI KG,114.1982,22.2892
408,ISLAND MONTESSORI INTERNATIONAL KINDERGA,113.9324,22.2286
409,JADE KINDERGARTEN,114.2369,22.2636
410,JAMES ANGLO-CHINESE KG (SHAM SHUI PO),113.9991,22.4583
411,JING JING AC KG (HUNG SHUI KIU BR),113.9958,22.4327
412,JING JING INTERNATIONAL KINDERGARTEN,114.0274,22.4457
413,JING JING KG (TUEN MUN BRANCH),113.977,22.389
414,JING JING KINDERGARTEN (SHUN LEE BRANCH),114.2057,22.3233
415,JINGLE BELL KINDERGARTEN,114.1703,22.3134
416,JONATHAN INNOVATIVE ENGLISH KINDERGARTEN,114.1782,22.3322
417,JORDAN PAK HOI KINDERGARTEN,114.165,22.3132
418,JOYFUL WORLD KINDERGARTEN,114.1794,22.3643
419,JOYFUL WORLD KINDERGARTEN (BELVEDERE),114.1794,22.3643
420,JOYFUL WORLD KINDERGARTEN (SHA TIN),114.2485,22.432
421,JUNK BAY KINGSLAND KINDERGARTEN,114.178,22.3197
422,KA FUK BAPTIST CHURCH PRE-SCHOOL,114.1822,22.337
423,KAM LAM CATHOLIC KINDERGARTEN,114.2602,22.3203
424,KAM TSIN VILLAGE HO TUNG KINDERGARTEN,114.1121,22.5014
425,KARLAM ANGLO-CHINESE KG (OASIS GARDEN),113.9665,22.3841
426,KARLAM ANGLO-CHINESE KINDERGARTEN,113.9665,22.3841
427,KARLAM KG (TUEN MUN BRANCH),113.9665,22.3841
428,KAU YAN SCHOOL,114.141,22.2854
429,KEEN MIND KINDERGARTEN,114.1766,22.3282
430,KELLETT SCHOOL,114.1396,22.2524
431,KENDALL INTERNATIONAL PRESCHOOL,114.158,22.2846
432,KENTVILLE KINDERGARTEN,114.1778,22.3384
433,KHALSA DIWAN KINDERGARTEN,114.0019,22.4685
434,KIANGSU & CHEKIANG PRIMARY SCHOOL,114.2004,22.287
435,KIN SANG BAPTIST CHURCH BRADBURY PRE SCH,114.1825,22.3357
436,KIN SANG LUTHERAN KINDERGARTEN,114.2214,22.3146
437,KING LAM LUTHERAN DAY NURSERY,114.25,22.263
438,KINGSTON INTERNATIONAL KINDERGARTEN,114.1774,22.3312
439,KOHITSUJI KINDERGARTEN,114.165,22.3132
440,KOREAN INTERNATIONAL SCHOOL,114.2232,22.2854
441,KORNHILL ANGLO-CHINESE KINDERGARTEN,114.2158,22.284
442,KORNHILL CHRISTIAN ANGLO-CHINESE KG,114.2158,22.284
443,KORNHILL VICTORIA KINDERGARTEN,114.2166,22.2836
444,KOWLOON BAPTIST CHURCH KINDERGARTEN,114.1858,22.3245
445,KOWLOON CANNAN ANGLO-CHINESE KG,114.1982,22.2892
446,KOWLOON CITY BAPTIST CHURCH HAY NIEN KG,114.1858,22.3245
447,KOWLOON CITY BAPTIST CHURCH KA FUK KG,114.1858,22.3245
448,KOWLOON CITY BAPTIST CHURCH KINDERGARTEN,114.1858,22.3245
449,KOWLOON CITY BAPTIST CHURCH TSZ OI KG,114.1858,22.3245
450,KOWLOON FUNFUL KINDERGARTEN,114.1763,22.3272
451,KOWLOON GAR SUM ANGLO-CHINESE KG,114.2494,22.2655
452,KOWLOON LING LIANG CHURCH DAY NURSERY,114.1861,22.3275
453,KOWLOON LING LIANG CHURCH KINDERGARTEN,114.1861,22.3275
454,KOWLOON RHENISH SCHOOL,114.1753,22.3295
455,KOWLOON TRUE LIGHT SCHOOL (KG SECTION),N,N
456,KOWLOON WOMEN'S WELFARE CLUB NURSERY SCH,114.1752,22.3129
457,KWAI CHUNG BAPTIST CHURCH KINDERGARTEN,114.1372,22.3651
458,KWAI SHING RHENISH CHURCH KINDERGARTEN,114.1372,22.3651
459,KWOK MAN VERNACULAR NORMAL ANGLO-CHI KG,114.1723,22.317
460,KWONG LAM BAPTIST LUI KWOK PAT FONG KG,114.2279,22.3189
461,KWUN TONG BAPTIST CHURCH CHOI MING KG,114.2223,22.3187
462,KWUN TONG BAPTIST CHURCH KINDERGARTEN,114.2223,22.3187
463,KWUN TONG METHODIST KINDERGARTEN,114.2214,22.3146
464,KWUN TONG ST AGNES ENGLISH KINDERGARTEN,114.2617,22.3103
465,LA PETITE ENFANCE KINDERGARTEN,114.0612,22.3532
466,LAI KING RHENISH NURSERY,114.1927,22.28
467,LAM TIN LING LIANG KINDERGARTEN,114.1835,22.2772
468,LEAPFROG KINDERGARTEN,114.165,22.3132
469,LEARNING HABITAT KG,114.2594,22.3664
470,LEARNING HABITAT KG (CHATHAM LV),114.2594,22.3664
471,LEARNING HABITAT KG (DOUBLE COVE),114.2426,22.43
472,LEARNING HABITAT KG (HAMPTON LOFT),114.2594,22.3664
473,LEARNING HABITAT KG (LOHAS PARK),114.2732,22.2925
474,LEE ANDREW MEMORIAL ANGLO-CHINESE KG,114.1942,22.2852
475,LEI TUNG LUTHERAN DAY NURSERY,114.03,22.2096
476,LEI YUE MUN METHODIST KINDERGARTEN,114.2391,22.2972
477,LEUNG KING LUTHERAN DAY NURSERY,114.2396,22.2756
478,LI MEGAN KINDERGARTEN,114.1828,22.3758
479,LICK HANG KINDERGARTEN,114.2751,22.3161
480,LING YAN SCHOOL,114.0335,22.4408
481,LINGNAN KINDERGARTEN (SIU SAI WAN),114.25,22.263
482,LITTLE BUDS KINDERGARTEN,114.0688,22.4338
483,LITTLE DALTON KINDERGARTEN,114.165,22.3132
484,LITTLE DALTON KINDERGARTEN(WEST KOWLOON),114.2202,22.2827
485,LITTLE LANTAU MONTESSORI KINDERGARTEN,113.9397,22.2788
486,LITTLE NEWTON ANGLO-CHINESE KINDERGARTEN,114.2251,22.4036
487,LKWFS CHU SUI LAN ANGLO-CHINESE KG,114.2494,22.2655
488,LOCK TAO CHRISTIAN KINDERGARTEN,114.2397,22.2784
489,LOK FU RHENISH CHURCH KINDERGARTEN,114.2002,22.3451
490,LOK FU RHENISH NURSERY,114.1927,22.28
491,LOK KING KINDERGARTEN,114.1537,22.464
492,LOK SIN TONG CHEUNG YIP MOU CHING KG,114.098,22.3504
493,LOK SIN TONG KU LEE KWOK SIN KG,114.1777,22.3662
494,LOK SIN TONG LEE YIN YEE KINDERGARTEN,114.1945,22.3338
495,LOK SIN TONG MAN NG WING YEE KG,113.9633,22.3965
496,LOK SIN TONG STEPHEN LEUNG KINDERGARTEN,113.9633,22.3965
497,LONG PING ESTATE SING YAN KINDERGARTEN,114.0234,22.4497
498,LOTUS ASSOCIATION OF HK SIU HEI COURT KG,113.9676,22.3731
499,LOVING HEART LUTHERAN KINDERGARTEN,114.1971,22.341
500,LST TANG TAK LIM KINDERGARTEN,114.1613,22.3336
501,LUDUS KINDERGARTEN,114.1954,22.3444
502,LUI CHEUNG KWONG LUTHERAN KINDERGARTEN,113.9782,22.3879
503,LUI KWAN POK LUTHERAN DAY NURSERY,114.03,22.2096
504,LUK YEUNG KINDERGARTEN,114.1197,22.3725
505,LUTHERAN PHILIP HOUSE MA TAU WAI NUR SCH,114.0008,22.4541
506,LUTHERAN PHILIP HSE HING MAN NURSERY SCH,114.1746,22.3004
507,LUTHERAN PHILIP HSE KAI YIP NURSERY SCH,114.1746,22.3004
508,LUTHERAN PHILIP HSE OI LUN NURSERY SCH,114.1746,22.3004
509,LYC'EE FRANCAIS INTL (FRENCH INTL SCH),114.1917,22.2612
510,MA ON SHAN LING LIANG KINDERGARTEN,114.2404,22.4246
511,MALVERN COLLEGE PRE-SCHOOL HONG KONG,114.1478,22.2841
512,MANHABIT KINDERGARTEN,114.1768,22.3306
513,MARITIME SQUARE LUTHERAN DAY NURSERY,114.1082,22.358
514,MARTHA BOSS LUTHERAN DAY NURSERY,114.1792,22.3162
515,MASS PRESCHOOL,114.1727,22.298
516,MAY NGA KINDERGARTEN,114.0688,22.4338
517,MAY NGA KINDERGARTEN (BRANCH),113.9705,22.3992
518,MAY NGA NURSERY,114.1884,22.3244
519,MCC LITTLE ANGEL (TIN SHING) K/G,114.0565,22.4846
520,MEI LAM ESTATE TO KWONG KINDERGARTEN,114.1772,22.3777
521,MEI TUNG ESTATE ON KEE KINDERGARTEN,114.1571,22.2407
522,MELODY AC KG (PRIME VIEW GARDEN BR),113.9796,22.403
523,MELODY ANGLO-CHINESE KINDERGARTEN,114.2251,22.4036
524,MELODY NURSERY (MELODY GARDEN),113.9607,22.3752
525,MIGHTY OAKS INTERNATIONAL KINDERGARTEN,114.2751,22.3161
526,MILLS INTERNATIONAL PRESCHOOL,114.158,22.2846
527,MING WAI INTERNATIONAL KG (NORTH POINT),114.2027,22.2918
528,MING WAI INTERNATIONAL KINDERGARTEN,114.2751,22.3161
529,MING WAI INTL KG (PRINCE EDWARD BR),114.1982,22.2892
530,MING WAI KINDERGARTEN,114.0019,22.4685
531,MINK ANGLO-CHINESE KINDERGARTEN,114.2251,22.4036
532,MINK INTERNATIONAL PRE-SCHOOL,114.1639,22.3205
533,MISSION COVENANT CH SISTER ANNIE'S KG,114.2316,22.3145
534,MONG KOK AGNES ENGLISH KINDERGARTEN,114.2617,22.3103
535,MONTESSORI FOR CHILDREN (NURSERY),114.1884,22.3244
536,MOON LOK KINDERGARTEN,114.1537,22.464
537,MORI LISA INTERNATIONAL KINDERGARTEN,114.1769,22.3315
538,MOUNT KELLY INTERNATIONAL PRESCHOOL,114.1489,22.2597
539,MUI WO OWLS SCHOOL,114.0007,22.2641
540,MUNSANG COLLEGE KINDERGARTEN,114.1856,22.3329
541,MUSLIM COMMUNITY KINDERGARTEN,114.1783,22.2744
542,MYNORS INTERNATIONAL KINDERGARTEN,114.1769,22.3315
543,N.M.S. LUTHERAN KINDERGARTEN,114.1971,22.341
544,NAAC FANLING DAY NURSERY,114.25,22.263
545,NAAC TUNG CHUNG DAY NURSERY,114.1884,22.3244
546,NAAC TUNG YAN DAY NURSERY,114.25,22.263
547,NAAC YUEN LONG DAY NURSERY,114.0302,22.2054
548,NAM YING KINDERGARTEN,114.2382,22.425
549,NEW GENERATION ENGLISH KG (TUEN MUN),113.9783,22.3908
550,NEW JADE ELEMENTI KINDERGARTEN,114.2369,22.2636
551,NEW KLN WOMEN ASSN LOK WAH NURSERY,114.2204,22.3217
552,NEW KLN WOMEN ASSN SHA KOK NURSERY,114.1625,22.3196
553,NEW KLN WOMEN ASSN SUN CHUI NURSERY,114.1819,22.3689
554,NEW KLN WOMEN ASSN TSZ WAN SHAN NURSERY,114.1964,22.3496
555,NORD ANGLIA INT'L PRE-SCHOOL (SAI KUNG),114.3019,22.3775
556,NORD ANGLIA INTL PRE-SCHOOL (TAI TAM),114.2153,22.2255
557,NORTH POINT METHODIST CHURCH KG,114.1959,22.2889
558,NORWEGIAN INTERNATIONAL SCHOOL,114.1575,22.4476
559,NP METHODIST CHURCH KG (FORTRESS HILL),114.1955,22.2886
560,NT AOG CHURCH WAI YAN KINDERGARTEN,114.0114,22.44
561,NTW&JWA L CHEUNG FAT EST NURSERY SCHOOL,114.1996,22.3914
562,NTW&JWA L FANLING NURSERY SCHOOL,114.1996,22.3914
563,NTW&JWA L POK HONG ESTATE NURSERY SCHOOL,114.1996,22.3914
564,NTW&JWA L SHEUNG SHUI NURSERY SCHOOL,114.1996,22.3914
565,NTW&JWA L YUEN LONG NURSERY SCHOOL,114.1996,22.3914
566,OI KWAN RD BAPT CH LUI KWOK PAT FONG KG,114.1796,22.2759
567,OISCA JAPANESE KINDERGARTEN,114.1908,22.2618
568,OUR LADY OF LOURDES CATHOLIC KG,114.2305,22.3127
569,OUR LADY'S KINDERGARTEN,114.1954,22.3444
570,PARKVIEW INTERNATIONAL PRE-SCHOOL,114.1559,22.2475
571,PARKVIEW INTERNATIONAL PRE-SCHOOL (KLN),114.1559,22.2475
572,PARKVIEW RHINE GARDEN PRE-SCHOOL,114.0623,22.3678
573,PEACE EVANGELICAL CENTRE KG (TSING YI),114.1889,22.3455
574,PEACE EVANGELICAL CENTRE KINDERGARTEN,114.1889,22.3455
575,PEACE EVANGELICAL CTR KG (NGAU TAU KOK),114.2161,22.3202
576,PEACE EVANGELICAL CTR KG (TIN SHUI WAI),114.1889,22.3455
577,PENTECOSTAL CH OF HK LEUNG SING TAK ANGL,113.9701,22.4064
578,PENTECOSTAL CH OF HK TSEUNG KWAN O NS,114.2497,22.3048
579,PENTECOSTAL CHURCH OF HK NAM CHEONG NS,114.1891,22.3416
580,PENTECOSTAL CHURCH OF HK TAI WO NS,114.2138,22.4573
581,PICCOLO MONTE INTERNATIONAL KINDERGARTEN,114.1769,22.3315
582,PING SHEK KINGSLAND KINDERGARTEN,114.143,22.2841
583,PLK ANGELA LEONG ON KEI KG,114.2319,22.4197
584,PLK CHAN LAI WAI LIN KINDERGARTEN,114.2076,22.328
585,PLK CHAN SENG YEE KINDERGARTEN,114.0247,22.4468
586,PLK CHEUNG POON MEI YEE KINDERGARTEN,114.1998,22.342
587,PLK CHOI KOON SHUM (OPULENT HOUSE) KG,113.9748,22.4029
588,PLK CHOI KOON SHUM KINDERGARTEN,113.9748,22.4029
589,PLK CHU LEE YUET WAH KINDERGARTEN,114.2277,22.313
590,PLK ELEANOR KWOK LAW KWAI CHUN KG,114.1851,22.2761
591,PLK FIONA CHEUNG SUM YU KINDERGARTEN,114.0955,22.3558
592,PLK FONG TAM YUEN LEUNG TSZ WAN SHAN KG,114.0905,22.4422
593,PLK FONG WONG WOON TAI KINDERGARTEN,113.9633,22.3965
594,PLK FUNG LEUNG KIT MEMORIAL KINDERGARTEN,114.173,22.448
595,PLK KAM HING KINDERGARTEN,114.0567,22.4784
596,PLK LAM TING LAI LING KINDERGARTEN,114.1316,22.3477
597,PLK LAU CHAN SIU PO KINDERGARTEN,114.2076,22.328
598,PLK LI TSUI CHUNG SING MEMORIAL KG,113.9694,22.4036
599,PLK LUI CHAN WAI CHING (KWAI FONG) KG,114.126,22.3604
600,PLK MR & MRS CHARLIE LEE KINDERGARTEN,114.1032,22.3485
601,PLK MRS CHAO KING LIN KINDERGARTEN,114.1032,22.3485
602,PLK MRS FONG WONG KAM CHUEN KINDERGARTEN,113.9623,22.4069
603,PLK MRS TAM WAH CHING KINDERGARTEN,114.2601,22.366
604,PLK MRS VICWOOD K T CHONG (WAH KWAI) KG,113.9722,22.4017
605,PLK MRS VICWOOD KT CHONG KINDERGARTEN,113.9722,22.4017
606,PLK NG TOR TAI KINDERGARTEN,114.1818,22.3363
607,PLK TAI SO SHIU WAN KINDERGARTEN,114.25,22.263
608,PLK TAM AU-YEUNG SIU FONG MEMORIAL KG,114.1289,22.3588
609,PLK TANG BIK WAN MEMORIAL KINDERGARTEN,114.1971,22.2868
610,PLK TIN KA PING KINDERGARTEN,114.1385,22.2495
611,PLK TIN KA PING SIU HONG KINDERGARTEN,113.9784,22.4133
612,PLK TSE WONG PUI KUEN KINDERGARTEN,114.0231,22.4464
613,PLK YICK CHARK FUNG KINDERGARTEN,114.132,22.2856
614,PLK YICK KWAI FONG KINDERGARTEN,114.1283,22.359
615,PO LEUNG KUK BUTTERFLY BAY KINDERGARTEN,113.9748,22.4029
616,PO LEUNG KUK CHENG KWAN HOW YIN KG,114.257,22.309
617,PO LEUNG KUK CHI PUI KINDERGARTEN,113.9748,22.4029
618,PO LEUNG KUK CHOI KAI YAU KG,114.1476,22.3445
619,PO LEUNG KUK FONG TAM YUEN LEUNG KG,113.9623,22.4069
620,PO LEUNG KUK KIM HUYNH KINDERGARTEN,113.9748,22.4029
621,PO LEUNG KUK KWUN TONG KINDERGARTEN,114.257,22.309
622,PO LEUNG KUK LAU CHUN KINDERGARTEN,114.1851,22.2761
623,PO LEUNG KUK LEE SHU FOOK KINDERGARTEN,113.9748,22.4029
624,PO LEUNG KUK LEE SIU CHAN KINDERGARTEN,114.1032,22.3485
625,PO LEUNG KUK LEK YUEN KINDERGARTEN,113.9748,22.4029
626,PO LEUNG KUK LUI CHAN WAI CHING KG,114.0983,22.3502
627,PO LEUNG KUK LUI KAM TAI KINDERGARTEN,114.3202,22.3943
628,PO LEUNG KUK WAI YIN KG,114.1232,22.374
629,PO LEUNG KUK WONG SIU CHING KINDERGARTEN,114.0983,22.3502
630,PO LEUNG KUK YAU OI KINDERGARTEN,113.9748,22.4029
631,PO LEUNG KUK YUEN LONG KINDERGARTEN,113.9748,22.4029
632,PODS KINDERGARTEN,114.0688,22.4338
633,PODS KINDERGARTEN (HARBOUR HEIGHTS),114.1916,22.2878
634,POH CHAN POON PUI CHING MEMORIAL KG,114.2399,22.3
635,POH MRS CHU KWOK KING MEMORIAL KG,114.1032,22.3485
636,POK OI HOSPITAL CHAN HSU FONG LAM KG,114.1779,22.3656
637,POK OI HOSPITAL MRS YAM WING YIN KG,114.0036,22.3722
638,POK OI HOSPITAL SY SIOK CHUN KG,114.2582,22.3136
639,POOI TO PRIMARY SCHOOL,114.1863,22.3243
640,PRECIOUS BLOOD KG (SHAM SHUI PO),114.1483,22.5063
641,PRECIOUS BLOOD KINDERGARTEN,114.1876,22.2657
642,PRE-SCHOOL PLAYGROUPS ASSO - CITY KIDZ,114.2695,22.3818
643,PRISTINE KINDERGARTEN,114.1812,22.3807
644,PROSPEROUS GARDEN BAPTIST NURSERY SCHOOL,114.168,22.3103
645,PUI CHING PRIMARY SCHOOL,114.1763,22.3175
646,RAIMONDI COLLEGE KINDERGARTEN SECTION,N,N
647,REDEMPTION LUTHERAN KINDERGARTEN,114.1971,22.341
648,REGENT'S KINDERGARTEN (BRANCH SCHOOL),113.9705,22.3992
649,REGINA COELI ANGLO-CHINESE KG (2ND BR),114.1982,22.2892
650,REGINA COELI ANGLO-CHINESE KINDERGARTEN,114.2251,22.4036
651,REGIS KINDERGARTEN,114.2382,22.425
652,RHENISH MISSION SCHOOL,114.1472,22.284
653,RIGHTMIND KINDERGARTEN,114.165,22.3132
654,RIVIERA FUNFUL KINDERGARTEN,114.0752,22.3678
655,ROCK OF AGES LUTHERAN KINDERGARTEN,114.1971,22.341
656,ROSARYHILL KINDERGARTEN,114.183,22.2634
657,SA CATHERINE BOOTH NURSERY SCH,114.2056,22.3469
658,SA CENTALINE CHARITY FUND YAU TONG KG,114.2374,22.2619
659,SA CHAN KWAN TUNG KINDERGARTEN,114.0247,22.4468
660,SA FU KEUNG KINDERGARTEN,114.186,22.3389
661,SA HING YAN KINDERGARTEN,114.0247,22.4468
662,SA HOI FU NURSERY SCH,114.1982,22.2892
663,SA JAT MIN NURSERY SCH,114.1911,22.3755
664,SA KAM TIN NURSERY SCH,114.0672,22.439
665,SA LAI CHI KOK NURSERY SCH,114.1605,22.3288
666,SA LEI MUK SHUE NURSERY SCH,114.134,22.3793
667,SA LOK MAN NURSERY SCH,114.1982,22.2892
668,SA MING TAK NURSERY SCH,114.1982,22.2892
669,SA NG KWOK WAI MEMORIAL KINDERGARTEN,114.0688,22.4338
670,SA NORTH POINT NURSERY SCHOOL,114.2094,22.2889
671,SA PAK TIN NURSERY SCH,114.1686,22.3378
672,SA SAM SHING NURSERY SCH,113.9787,22.3813
673,SA TAI WO HAU NURSERY SCH,114.1245,22.3697
674,SA TAI YUEN NURSERY SCH,114.0302,22.2054
675,SA TIN KA PING KINDERGARTEN,114.1385,22.2495
676,SA TIN PING NURSERY SCHOOL,114.1326,22.504
677,SA TSUEN WAN NURSERY SCH,114.25,22.263
678,SA WAH FU NURSERY SCH,114.1982,22.2892
679,SA WO CHE NURSERY SCH,114.1937,22.3858
680,SACRED HEART CANOSSIAN KINDERGARTEN,114.1534,22.28
681,SAFARI KID INTERNATIONAL KINDERGARTEN,114.1769,22.3315
682,SAGARMATHA KINDERGARTEN,114.165,22.3132
683,SAI KUNG LOK-YUK KINDERGARTEN,114.2695,22.3818
684,SAI KUNG PRE-SCHOOL GROUP,114.3026,22.3877
685,SAINT BRIGIT INTERNATIONAL KINDERGARTEN,114.2751,22.3161
686,SAINT MAY SCHOOL,113.9796,22.3829
687,SALVATION ARMY PING TIN KINDERGARTEN,114.1924,22.3752
688,SAN PO KONG RHENISH NURSERY,114.1927,22.28
689,SDM-CHATSWORTH INTERNATIONAL KG,114.1982,22.2892
690,SEMPLE KINDERGARTEN,113.9777,22.3837
691,SHAM SHUI PO BAPTIST CHURCH KINDERGARTEN,114.1372,22.3651
692,SHAM SHUI PO TAK SHIN KINDERGARTEN,114.1761,22.4522
693,SHAN KING ESTATE BAPTIST KINDERGARTEN,113.967,22.3968
694,SHARON LUTHERAN CHURCH KG (TSZ OI BR),114.1808,22.3786
695,SHARON LUTHERAN CHURCH KINDERGARTEN,114.1855,22.3727
696,SHAU KEI WAN METHODIST KINDERGARTEN,114.2332,22.2683
697,SHAUKIWAN KF WEL CMY CTR CKT MEM KG,114.2293,22.277
698,SHAUKIWAN TSUNG TSIN NURSERY SCH,114.2311,22.2818
699,SHENG KUNG HUI KINDERGARTEN,114.196,22.2704
700,SHEUNG SHUI CHURCH KINDERGARTEN,114.1266,22.5085
701,SHEUNG SHUI PUI YAU KINDERGARTEN,114.1012,22.5069
702,SHEUNG SHUI RHENISH CHURCH KINDERGARTEN,114.1266,22.5085
703,SHEUNG SHUI WAI CHOW KG (BRANCH),114.135,22.5032
704,SHIN YAT TONG ON YAT KINDERGARTEN,114.172,22.3075
705,SHIN YAT TONG YAT TUNG KINDERGARTEN,113.9364,22.2811
706,SHUN SANG ANGLO-CHINESE KINDERGARTEN,114.2251,22.4036
707,SHUN TAK FRATERNAL ASSN LEUNG KIT WAH KG,114.2557,22.3233
708,SHUN TIN RHENISH NURSERY,114.1927,22.28
709,SIN CHING KINDERGARTEN,114.098,22.3504
710,SINGAPORE INTERNATIONAL SCH (HONG KONG),114.1672,22.2446
711,SIS. IMMACULATE HEART MARY GOSPEL SMP KG,114.1834,22.3757
712,SIS. IMMACULATE HEART OF MARY WTS KG,114.168,22.446
713,SJS BELCHER KG,114.1982,22.2892
714,SJS CAUSEWAY BAY KG,114.1889,22.2793
715,SJS KATHLEEN MCDOUALL KG,114.1982,22.2892
716,SKH CROWN OF THORNS CHURCH KWAI CHUNG KG,114.1225,22.3682
717,SKH CROWN OF THORNS CHURCH SADICK KG,114.1225,22.3682
718,SKH GOOD SHEPHERD KINDERGARTEN,114.1878,22.3181
719,SKH HOLY NATIVITY CHURCH KINDERGARTEN,114.2313,22.2755
720,SKH HOLY SPIRIT CHURCH KG,114.1996,22.381
721,SKH HOLY TRINITY CH TSANG SHIU TIM KG,114.1948,22.3867
722,SKH KINDLY LIGHT CH HOLY CARPENTER KG,114.2034,22.3466
723,SKH KINDLY LIGHT CH HOLY CARPENTER KG BR,114.2034,22.3466
724,SKH KINDLY LIGHT CHURCH OR PUI CHEUNG KG,114.2034,22.3466
725,SKH S P CH CASTLE PEAK TSING WUN RD KG,113.9659,22.3913
726,SKH SHAM SHUI PO KEI OI CHURCH KG,114.168,22.332
727,SKH ST CHRISTOPHER'S NUR (KWAI CHUNG),114.1281,22.37
728,SKH ST CHRISTOPHER'S NURSERY(WAN CHAI),114.2429,22.2651
729,SKH ST JOSEPH'S CHURCH KINDERGARTEN,114.0688,22.4338
730,SKH ST PETER'S CH CP SIU LUN COURT KG,113.9769,22.3837
731,SKH ST PETER'S CH SHAN KING ESTATE KG,113.9647,22.396
732,SKH ST PETER'S CHURCH KG (CASTLE PEAK),113.967,22.3923
733,SKH THE CHURCH OF OUR SAVIOUR KG,113.9777,22.3972
734,SKY WIDE INTERNATIONAL KINDERGARTEN,114.2751,22.3161
735,SMALL WORLD CHRISTIAN KINDERGARTEN,114.1782,22.3273
736,SOPHIE KINDERGARTEN,114.165,22.3132
737,SOUTHSIDE KINDERGARTEN,114.165,22.3132
738,SPRING VIEW KINDERGARTEN,114.1971,22.2868
739,ST ANDREW'S CATHOLIC KINDERGARTEN,114.0013,22.4497
740,ST ANNA ANGLO-CHINESE KINDERGARTEN,114.2251,22.4036
741,ST ANTHONY'S ANGLO-CHINESE PRI SCH & KG,114.1477,22.2839
742,ST ANTONIUS KINDERGARTEN,114.2383,22.301
743,ST BARNABAS' CHURCH KINDERGARTEN,114.2255,22.3161
744,ST CATHERINE'S INTERNATIONAL KG,114.1776,22.3282
745,ST CLARE'S PRIMARY SCHOOL,114.1404,22.2835
746,ST DOMINIC ANGLO-CHINESE KINDERGARTEN,114.2396,22.2756
747,ST JAMES CATHOLIC KINDERGARTEN,114.0013,22.4497
748,ST JAMES LUTHERAN K/G,114.2383,22.2941
749,ST JOHANNES COLLEGE,114.1784,22.3338
750,ST LORRAINE ENGLISH KINDERGARTEN,114.2617,22.3103
751,ST LORRAINE KINDERGARTEN (YUEN LONG),114.0284,22.4419
752,ST MARGARET MARY'S CATHOLIC KINDERGARTEN,114.0013,22.4497
753,ST MARK'S CHURCH BRADBURY KINDERGARTEN,114.1809,22.3198
754,ST MATTHEW'S CHURCH KINDERGARTEN,114.1472,22.2857
755,ST MATTHIAS' CHURCH CHIU CHUN KG,114.0219,22.4455
756,ST MATTHIAS' CHURCH NURSERY SCHOOL,114.0219,22.4455
757,ST MONICA'S AC KG (WAH KWAI ESTATE),114.138,22.2502
758,ST MONICA'S ANGLO-CHINESE KG (HING TUNG),114.1982,22.2892
759,ST MONICA'S ANGLO-CHINESE KG (TSUEN WAN),114.1982,22.2892
760,ST MONICA'S ANGLO-CHINESE KINDERGARTEN,114.2251,22.4036
761,ST MONICA'S KINDERGARTEN,114.2617,22.3103
762,ST MONICA'S KINDERGARTEN (TSUEN WAN),114.1164,22.3718
763,ST NICHOLAS' ENGLISH KG,114.177,22.3322
764,ST PAUL'S CHURCH KINDERGARTEN,114.1553,22.2795
765,ST PAUL'S DAY NURSERY,114.0302,22.2054
766,ST PAUL'S KINDERGARTEN,114.1867,22.2782
767,ST PETER'S CATHOLIC KG,114.1486,22.2449
768,ST PETER'S CHURCH KINDERGARTEN,113.967,22.3923
769,ST PETER'S CHURCH KINDERGARTEN (STANLEY),113.967,22.3923
770,ST PHILIP LUTHERAN CHURCH KINDERGARTEN,114.0008,22.4541
771,ST ROSE OF LIMA'S KINDERGARTEN,114.1751,22.3265
772,ST STEPHEN'S CATHOLIC KINDERGARTEN,114.1446,22.2839
773,ST STEPHEN'S CHURCH PRI SCH & KG,114.1381,22.2848
774,ST STEPHEN'S GIRLS' COLLEGE KINDERGARTEN,114.1446,22.2839
775,ST TERESA'S KINDERGARTEN,114.2136,22.2185
776,ST THOMAS' CATHOLIC KINDERGARTEN,114.0013,22.4497
777,ST THOMAS' CHURCH KINDERGARTEN,114.1654,22.3319
778,ST VINCENT DE PAUL NURSERY SCHOOL,114.1982,22.2892
779,ST. CATHERINE'S KG (HARBOUR PLACE),114.1862,22.3023
780,ST. GAVRIEL KINDERGARTEN,114.0688,22.4338
781,ST. HILARY'S KINDERGARTEN,114.1395,22.2844
782,ST. HILARY'S KINDERGARTEN (HUNG HOM),114.1395,22.2844
783,ST. JEROME'S CATHOLIC KINDERGARTEN,114.0013,22.4497
784,ST. PAUL'S CATHOLIC DAY NURSERY (TAI WAI,114.0302,22.2054
785,ST. PAUL'S CHURCH KG (NORTH POINT),114.1553,22.2795
786,STAFFORD ENGLISH KINDERGARTEN,114.1782,22.3322
787,STAR OF THE SEA CATHOLIC KINDERGARTEN,114.2336,22.2646
788,STEWARDS POOI CHUN KINDERGARTEN,114.2138,22.383
789,STEWARDS POOI YAN KINDERGARTEN,114.2138,22.383
790,STFA LEUNG LEE SAU YU (SHATIN) KG,114.2269,22.276
791,STFA TM LEUNG LEE SAU YU KINDERGARTEN,114.2269,22.276
792,SUEN MEI KINDERGARTEN,114.0013,22.4497
793,SUN ISLAND ENGLISH KG (BELCHER BRANCH),114.181,22.372
794,SUN ISLAND ENGLISH KG (KWAI HING BRANCH),114.181,22.372
795,SUN ISLAND ENGLISH KG (KWAI KING BRANCH),114.181,22.372
796,SUN ISLAND ENGLISH KG (LOK MAN),114.181,22.372
797,SUN ISLAND ENGLISH KG (SAI KUNG),114.181,22.372
798,SUN ISLAND ENGLISH KG (YUEN LONG BRANCH),114.181,22.372
799,SUN ISLAND ENGLISH KINDERGARTEN,114.181,22.372
800,SUN ISLAND KG (METRO HARBOUR BRAN),114.1616,22.3244
801,SUN ISLAND KINDERGARTEN (TUNG CHUNG BR),113.9397,22.2788
802,SUNG KEI KINDERGARTEN,114.1905,22.3135
803,SUNKIDS KINDERGARTEN,114.165,22.3132
804,SUNSHINE HOUSE INT'L PRE-SCH (CB),114.2297,22.4252
805,SUNSHINE HOUSE INTL PRE-SCH (TUNG CHUNG),114.2297,22.4252
806,SUNSHINE HOUSE INTL PRE-SCHOOL (CHI FU),114.2297,22.4252
807,SWINDON KINDERGARTEN,114.165,22.3132
808,TACK CHING KINDERGARTEN,114.1613,22.3336
809,TAI PING KINDERGARTEN,114.1266,22.4979
810,TAI PO BAPTIST KG TIN CHAK ESTATE BRANCH,113.9978,22.4671
811,TAI PO BAPTIST KG WAN TAU TONG ESTATE BR,114.166,22.4421
812,TAI PO BAPTIST KINDERGARTEN,114.1822,22.337
813,TAI PO CATHOLIC KINDERGARTEN,114.0013,22.4497
814,TAI PO MERCHANTS ASSOCIATION KG,114.1645,22.448
815,TAI PO METHODIST KINDERGARTEN,114.1749,22.4562
816,TAI PO RHENISH CHURCH KINDERGARTEN,114.1649,22.4517
817,TAI TUNG SUN CHUEN ST TERESA KG,113.9722,22.4017
818,TAK SUN PRIVATE KINDERGARTEN,114.1613,22.3336
819,TALENT KINDERGARTEN,114.0057,22.4589
820,TANPOPO KINDERGARTEN,114.165,22.3132
821,TEIKYO HONG KONG KINDERGARTEN,114.1881,22.2666
822,TELFORD GARDENS ENGLISH KINDERGARTEN,114.2135,22.3244
823,TELFORD GARDENS KINDERGARTEN,114.2135,22.3244
824,THE HARBOUR SCHOOL,114.172,22.2808
825,THE HONG KONG CHINESE WOMEN'S CLUB KG,114.2296,22.4222
826,THE INDEPENDENT SCH FDN PRE-SCHOOLS,114.1298,22.2646
827,THE PEAK PRE-SCHOOL,114.15,22.2704
828,THE SAL ARMY CENTALINE CHARITY FUND KG,114.2374,22.2619
829,THE SALVATION ARMY SHUI CHUEN O KG,113.9787,22.3813
830,THE WOODLAND BEACHSIDE PRE-SCHOOL,114.1984,22.2379
831,THE WOODLAND HARBOURSIDE PRE-SCHOOL,114.1954,22.2915
832,THE WOODLAND KENNEDY TOWN PRE-SCHOOL,114.1261,22.2834
833,THE WOODLAND MONTESSORI PRE-SCHOOL (CR),114.1505,22.2817
834,THE WOODLAND PRE-SCHOOL (POKFULAM),114.1312,22.2719
835,THE WOODLAND SAI KUNG PRE-SCHOOL,114.3026,22.3877
836,THINK INTERNATIONAL KG (KOWLOON TONG),114.1771,22.3271
837,THINK INTERNATIONAL KG (MA ON SHAN),114.1771,22.3271
838,THINK INTERNATIONAL KG (MEI FOO),114.1771,22.3271
839,THINK INTERNATIONAL KINDERGARTEN,114.1771,22.3271
840,THINK INTERNATIONAL SCHOOL,114.1771,22.3271
841,TIN KING EST BAPT LUI KWOK PAT FONG KG,114.2279,22.3189
842,TIN SHUI WAI ALLIANCE KINDERGARTEN,114.0019,22.4685
843,TIN WAN METHODIST KINDERGARTEN,114.2375,22.3073
844,TIVOLI ANGLO-CHINESE KINDERGARTEN,114.2251,22.4036
845,TIVOLI KINDERGARTEN,114.1753,22.3257
846,TIVOLI KINDERGARTEN (BRANCH),114.1753,22.3257
847,TOPKIDS INTERNATIONAL KINDERGARTEN (YL),114.0022,22.4544
848,TP MER ASSN CHEUNG HOK MING KG (TKO),114.0331,22.2077
849,TRUE LIGHT MIDDLE SCHOOL OF HONG KONG,114.1945,22.2757
850,TRUTH BAPTIST CHURCH EMPOWER KG,114.1822,22.337
851,TRUTH BAPTIST CHURCH GLORY NURSERY,114.1824,22.3354
852,TRUTH BAPTIST CHURCH GRACE KINDERGARTEN,114.1372,22.3651
853,TRUTH BAPTIST CHURCH HO YUEN WAI KING KG,114.1822,22.337
854,TRUTH BAPTIST CHURCH KINDERGARTEN,114.1372,22.3651
855,TRUTH BAPTIST CHURCH PICTORIAL KG,114.1822,22.337
856,TSEUNG KWAN O METHODIST KINDERGARTEN,114.2625,22.3055
857,TSIM SHA TSUI FUNFUL INTERNATIONAL KG,114.1078,22.3747
858,TSING YI TRADE ASSN TIN SHUI WAI KG,114.0011,22.4681
859,TSING YI TRADE ASSN TSEUNG KWAN O KG,114.1026,22.3542
860,TSING YI TRADE ASSOCIATION KINDERGARTEN,114.1038,22.3496
861,TSING YI TRADE ASSOCIATION SHEK YAM KG,114.1026,22.3542
862,TSUEN WAN BAPTIST CHURCH KINDERGARTEN,114.12,22.3703
863,TSUEN WAN BAPTIST CHURCH SHEK LEI KG,114.12,22.3703
864,TSUEN WAN OUR LADY KINDERGARTEN,114.1954,22.3444
865,TSUEN WAN ST DOMINIC SAVIO KINDERGARTEN,114.2396,22.2756
866,TSUEN WAN TRADE ASSN CHU CHEONG KG,114.1199,22.3713
867,TSUEN WAN TRADE ASSN YAU KIN FUNG KG,114.1026,22.3542
868,TSUEN WAN TRADE ASSOCIATION CHUNG LOI KG,114.1026,22.3542
869,TSUI LAM ESTATE BAPTIST KINDERGARTEN,114.2495,22.3222
870,TSUNG TSIN MISS GRACEFUL KG (MA ON SHAN),114.2226,22.406
871,TSUNG TSIN MISSION GRACEFUL KINDERGARTEN,114.1678,22.3288
872,TSUNG TSIN MISSION OF HK ON HONG N SCH,114.1678,22.3288
873,TSUNG TSIN MISSION OF HK ON KEI NUR SCH,114.1678,22.3288
874,TSUNG TSIN MISSION OF HK ON KEUNG N SCH,114.1678,22.3288
875,TSUNG TSIN MISSION OF HK ON YAN NUR SCH,114.1678,22.3288
876,TSUNG TSIN MISSION OF HK ON YEE N SCH,114.1678,22.3288
877,TSUNG TSIN MISSION PAK TIN GRACEFUL KG,114.1678,22.3288
878,TSUNG TSIN PRIMARY SCHOOL AND KG,114.1681,22.3287
879,TSZ CHING ESTATE BODHI SIKSA KG,114.2019,22.35
880,TTMHK ON CHUNG KG,114.1982,22.2892
881,TUNG CHUNG BAPTIST KINDERGARTEN,114.1822,22.337
882,TUNG CHUNG CATHOLIC KINDERGATEN,113.936,22.283
883,TUTOR TIME BRAEMAR HILL INTERNATIONAL KG,114.1786,22.3383
884,TUTOR TIME INTERNATIONAL KG (KLN TONG),114.1786,22.3383
885,TUTOR TIME INTERNATIONAL KG (MID LEVELS),114.1786,22.3383
886,TUTOR TIME INTERNATIONAL KG (YOHO),114.1786,22.3383
887,TWGH CHAN KING HAR KINDERGARTEN,114.0247,22.4468
888,TWGH FONG SHU FOOK TONG KINDERGARTEN,114.1412,22.4827
889,TWGH HUNG WONG KAR GEE KINDERGARTEN,114.1692,22.2503
890,TWGH KO TECK KIN MEMORIAL KINDERGARTEN,114.1298,22.3533
891,TWGH LAI TANG YUEN-KAW KINDERGARTEN,113.9771,22.3883
892,TWGH LEE WONG HING CHEUNG MEMORIAL KG,114.1758,22.2505
893,TWGH LIU YAN TAK MEMORIAL KINDERGARTEN,114.2555,22.3241
894,TWGH LUI FUNG FAUNG MEMORIAL KG,114.2555,22.3241
895,TWGH TSUI TSIN TONG KINDERGARTEN,114.1341,22.2521
896,TWGH WONG CHU WAI FUN KINDERGARTEN,114.1795,22.3752
897,TWGH WONG SEE SUM KINDERGARTEN,114.1018,22.3616
898,TWGH WONG WU LAI MING KINDERGARTEN,114.14,22.4851
899,TWGHS FONG TAM YUEN LEUNG NURSERY SCH,113.9623,22.4069
900,TWGHS HUNG WONG KAR GEE NURSERY SCHOOL,114.2396,22.2756
901,TWGHS NG SHEUNG LAN MEMORIAL NUR SCH,114.2597,22.3192
902,TWGHS SHIU WONG LEE MOON FOOK N SCH,114.2476,22.2642
903,TWGHS ZONTA CLUB OF KOWLOON NURSERY SCH,114.1752,22.3129
904,TWGHS CHAN HAN NURSERY SCHOOL,114.0302,22.2054
905,TWGHS CHIAP HUA CHENG'S NURSERY SCHOOL,114.1982,22.2892
906,TWGHS FONG LAI MING NURSERY SCHOOL,114.1982,22.2892
907,TWGHS FONG SHIU YEE NURSERY SCH,114.1716,22.3354
908,TWGHS FONG SHU CHUEN NURSERY SCHOOL,114.2291,22.2783
909,TWGHS KWAN FONG NURSERY SCHOOL,114.1716,22.3354
910,TWGHS LIONS CLUB OF METROPOLITAN H K KG,114.1945,22.4695
911,TWGHS LIONS CLUB SOUTH KLN NURSERY SCH,114.0013,22.4471
912,TWGHS LIONS CLUB THE PEAK HK NUR SCH,114.1254,22.2717
913,TWGHS LO WONG PIK SHAN NURSERY SCH,114.2291,22.4226
914,TWGHS LUCINA LAAM HO KINDERGARTEN,114.1481,22.2628
915,TWGHS NICKON KG,114.1982,22.2892
916,TWGHS TIN KA PING NURSERY SCH,114.1312,22.4938
917,TWGHS TIN WAN (1996 - 1997 DIRECTORS) KG,113.9951,22.46
918,UNITED CHRISTIAN MED SERVICE NURSERY SCH,114.1982,22.2892
919,VICTORIA (BELCHER) KINDERGARTEN,114.1262,22.2704
920,VICTORIA (HARBOUR GREEN) KINDERGARTEN,114.1594,22.3228
921,VICTORIA (KORNHILL) NURSERY,114.2166,22.2836
922,VICTORIA (SOUTH HORIZONS) INTL KG,114.149,22.2423
923,VICTORIA HOMANTIN INTERNATIONAL NURSERY,114.1749,22.316
924,VICTORIA KINDERGARTEN,114.1262,22.2704
925,VICTORIA NURSERY,114.2166,22.2836
926,VNSAA ST. HILARY'S SCHOOL,114.1395,22.2844
927,W.F.B. AVALOKITESVARA NURSERY SCH,114.1982,22.2892
928,W.F.B. MANJUSRI NURSERY SCH,114.1982,22.2892
929,W.F.B. MANTRA INSTITUTE NURSERY SCH,114.1935,22.2772
930,WAI PENG KINDERGARTEN SCHOOL,114.0019,22.4685
931,WAYFOONG NURSERY SCHOOL,114.1982,22.2892
932,WELLBORN ANGLO-CHINESE KINDERGARTEN,114.2251,22.4036
933,WELLBORN INTERNATIONAL PRE-SCHOOL,114.2251,22.4036
934,WELLCOME INTERNATIONAL KINDERGARTEN,114.1769,22.3315
935,WESTERN PACIFIC KINDERGARTEN,114.1356,22.2865
936,WILDERNESS INTERNATIONAL KINDERGARTEN,114.1769,22.3315
937,WILLIAM (SMART) KINDERGARTEN,114.1565,22.2755
938,WILLIAM (SMART) KINDERGARTEN (WHAMPOA),114.1565,22.2755
939,WISDOM KINDERGARTEN,114.1394,22.2804
940,WISE LE SAGE ANGLO-CHINESE KINDERGARTEN,113.9665,22.3841
941,WISELY KINDERGARTEN,114.2695,22.3818
942,WISELY NURSERY,114.1982,22.2892
943,WITTY KINDERGARTEN,114.1709,22.3162
944,WOMEN'S WELFARE CLUB W-DIST HK KG,114.1497,22.2835
945,WOODLAND MONTESSORI PRE-SCH(REPULSE BAY),114.0123,22.2953
946,WOODLAND PRE-SCHOOL (HAPPY VALLEY),114.1861,22.2695
947,WWC (EASTERN DIST) NURSERY HK,114.03,22.2096
948,WWC(ED)HK LAI KWAI TIM DAY NURSERY,114.25,22.263
949,WWCWDHK AP LEI CHAU KG,114.2691,22.5513
950,WWCWDHK DAVID WOO MEM KG,114.1905,22.2754
951,YAN CHAI HOSPITAL CHOI PAT TAI KG,114.1664,22.4414
952,YAN CHAI HOSPITAL FONG KONG FAI KG,113.9665,22.3749
953,YAN CHAI HOSPITAL JU CHING CHU KG,113.9665,22.3749
954,YAN CHAI HOSPITAL KWOK CHI LEUNG KG,114.1319,22.3453
955,YAN CHAI HOSPITAL MING TAK KINDERGARTEN,114.1197,22.3704
956,YAN CHAI HOSPITAL NINA LAM KINDERGARTEN,113.9665,22.3749
957,YAN CHAI HOSPITAL SHAN KING KINDERGARTEN,113.9665,22.3749
958,YAN CHAI HOSPITAL TUNG PAK YING KG,114.2345,22.4238
959,YAN CHAI HOSPITAL WING LUNG KINDERGARTEN,114.1321,22.3456
960,YAN CHAI HOSPITAL YAU OI KINDERGARTEN,113.9665,22.3749
961,YAN CHAI HOSPITAL YIM TSUI YUK SHAN KG,114.2547,22.3248
962,YAN OI TONG ALLAN YAP KINDERGARTEN,113.9669,22.402
963,YAN OI TONG CHAN CHENG YUK YEE KG,113.9669,22.402
964,YAN OI TONG DAN YANG WING MAN KG,113.9669,22.402
965,YAN OI TONG LAU WONG FAT KINDERGARTEN,113.9773,22.3896
966,YAN OI TONG MRS AUGUSTA CHEUNG KG,114.261,22.31
967,YAN OI TONG NG WONG FUNG YING KG,113.9669,22.402
968,YAN OI TONG NGAN PO LING KINDERGARTEN,114.0111,22.432
969,YAN OI TONG PANG HUNG CHEUNG KG,114.261,22.31
970,YAN OI TONG PONG LO SHUK YIN KG,113.9669,22.402
971,YAN OI TONG TIN KA PING KG,113.9647,22.396
972,YAU YAT CHUEN SCHOOL,114.1724,22.3277
973,YAUMATEI YANG MEMORIAL METHODIST PRE-SCH,114.1634,22.3131
974,YCH ZONTA CLUB OF KOWLOON KINDERGARTEN,114.1769,22.3311
975,YEW CHUNG CHILDREN'S HSE (SOMERSET ROAD),114.1783,22.338
976,YEW CHUNG INTERNATIONAL SCHOOL,114.1759,22.3384
977,YEW CHUNG INT'L CHILDREN HSE (WATERLOO),114.1759,22.3384
978,YEW CHUNG INT'L CHILDREN'S HSE (KENT RD),114.1759,22.3384
979,YIU TUNG BAPTIST KINDERGARTEN,114.1822,22.337
980,YIU WING ANGLO-CHINESE KINDERGARTEN,114.2382,22.425
981,YL CHURCH (CCC) CHAN KWONG NO. 2 KG,114.0247,22.4468
982,YL CHURCH CCC CHOW SUNG CHU OI NUR SCH,114.0245,22.4467
983,YL P M S A A LAU LEUNG SHEUNG MEM K/G,114.123,22.3633
984,YL TK DIST ASSN MRS WONG SIU KEUNG KG,114.1032,22.3485
985,YL TUNG KOON DIST ASSN HUNG TING KA KG,114.1319,22.3592
986,YLC(CCC) LONG PING ESTATE CHAN KWONG KG,114.0234,22.4497
987,YMCA OF HK CHRISTIAN INTERNATIONAL KG,113.9315,22.2754
988,YMCA OF HK CHRISTIAN INT'L KG (WEST KLN),113.9315,22.2754
989,YMCA OF HK CHRISTIAN KG (KAI CHING),113.9315,22.2754
990,YMCA OF HK CHRISTIAN NUR SCH (FARM ROAD),114.1853,22.3207
991,YORK ENGLISH & CHINESE KINDERGARTEN,114.1775,22.3341
992,YORK ENGLISH PRI SCH & KG (KOWLOON TONG),114.1775,22.3341
993,YORK INTERNATIONAL KINDERGARTEN,114.1769,22.3315
994,YORK INTERNATIONAL PRE-SCHOOL,114.1769,22.3315
995,YORK INTERNATIONAL PRE-SCHOOL (HK),114.1769,22.3315
996,YORK MONTESSORI INT'L PRE-SCH (MEI FOO),114.1408,22.3358
997,YORK MONTESSORI INTL PRE-SCHOOL (YL),114.1769,22.3315
998,YUE TIN COURT YIU WING ANGLO-CHINESE KG,114.1736,22.3607
999,YUEN KONG KINDERGARTEN,114.0777,22.4253
1000,YUEN LONG CHURCH (CCC) CHAN KWONG KG,114.0247,22.4468
1001,YUEN LONG LUTHERAN LIFE KINDERGARTEN,114.0777,22.4253
1002,YUEN LONG MERCHANTS ASSOCIATION KG,114.0239,22.4442
1003,YUEN LONG RHENISH NURSERY,114.1927,22.28
1004,YUEN LONG SAM YUK KINDERGARTEN,114.0777,22.4253
1005,YUEN YUEN KINDERGARTEN (PING TIN ESTATE),114.2362,22.3072
1006,YUEN YUEN KINDERGARTEN (TIN YAT ESTATE),114.0001,22.4662
1007,ZEBEDEE INTERNATIONAL PRESCHOOL,114.158,22.2846
1008,ZENITH KINDERGARTEN,114.1847,22.268
1009,ZENITH KINDERGARTEN (KOWLOON TONG),114.1786,22.3383
1010,ZENITH KINDERGARTEN (SHATIN),114.1847,22.268
1011,ZENITH KINDERGARTEN (SHERWOOD),114.1847,22.268
1012,ZENITH KINDERGARTEN (TSEUNG KWAN O),114.1847,22.268
1013,ZENITH KINDERGARTEN (TUEN MUN),113.9991,22.4583
1014,ZENITH KINDERGARTEN (YUEN LONG),113.9991,22.4583
1015,ZION LUTHERAN KINDERGARTEN,114.1971,22.341
